[
    {
        "name": "Sân Việt Hưng",
        "category": "ash",
        "data": {
            "name": "Sân Việt Hưng",
            "description": "",
            "owner": {
                "profile": "",
                "name": "",
                "facebook": "",
                "phone": ""
            },
            "images": [
                "",
                ""
            ]
        },
        "position": {
            "lat": 21.02842155004115,
            "lng": 105.7944144580447
        }
    },
    {
        "name": "Sân An Khánh",
        "category": "oak",
        "position": {
            "lat": 21.03012418271786,
            "lng": 105.80565249826983
        }
    },
    {
        "name": "Sân Phú Mỹ",
        "category": "maple",
        "position": {
            "lat": 10.78934567894532,
            "lng": 106.70023456789123
        }
    },
    {
        "name": "Sân Định Công",
        "category": "birch",
        "position": {
            "lat": 20.99562548003497,
            "lng": 105.83740943804371
        }
    },
    {
        "name": "Sân Tân Bình",
        "category": "pine",
        "position": {
            "lat": 10.80342156789123,
            "lng": 106.66234567891234
        }
    },
    {
        "name": "Sân Mỹ Đình",
        "category": "cedar",
        "position": {
            "lat": 21.02872154684213,
            "lng": 105.7823144580047
        }
    },
    {
        "name": "Sân Thống Nhất",
        "category": "ash",
        "position": {
            "lat": 10.77642156890234,
            "lng": 106.68834567892345
        }
    },
    {
        "name": "Sân Tây Hồ",
        "category": "oak",
        "position": {
            "lat": 21.05762158004115,
            "lng": 105.8214144600347
        }
    },
    {
        "name": "Sân Bình Thạnh",
        "category": "maple",
        "position": {
            "lat": 10.80042157903412,
            "lng": 106.7143456800045
        }
    },
    {
        "name": "Sân Long Biên",
        "category": "birch",
        "position": {
            "lat": 21.04212156004117,
            "lng": 105.8754144570347
        }
    },
    {
        "name": "Sân Gò Vấp",
        "category": "pine",
        "position": {
            "lat": 10.82742156904523,
            "lng": 106.6743456790045
        }
    },
    {
        "name": "Sân Cầu Giấy",
        "category": "cedar",
        "position": {
            "lat": 21.02942154804116,
            "lng": 105.7884144590047
        }
    },
    {
        "name": "Sân Quận 1",
        "category": "ash",
        "position": {
            "lat": 10.77642157005623,
            "lng": 106.70034567891234
        }
    },
    {
        "name": "Sân Thanh Xuân",
        "category": "oak",
        "position": {
            "lat": 20.99862154704117,
            "lng": 105.7994144550347
        }
    },
    {
        "name": "Sân Thủ Đức",
        "category": "maple",
        "position": {
            "lat": 10.85042157904534,
            "lng": 106.7603456790045
        }
    },
    {
        "name": "Sân Ba Đình",
        "category": "birch",
        "position": {
            "lat": 21.03312154804117,
            "lng": 105.8334144550347
        }
    },
    {
        "name": "Sân Quận 3",
        "category": "pine",
        "position": {
            "lat": 10.77542156904534,
            "lng": 106.6863456790045
        }
    },
    {
        "name": "Sân Hoàn Kiếm",
        "category": "cedar",
        "position": {
            "lat": 21.02842154804117,
            "lng": 105.8514144550347
        }
    },
    {
        "name": "Sân Quận 7",
        "category": "ash",
        "position": {
            "lat": 10.73042156904545,
            "lng": 106.7143456790045
        }
    },
    {
        "name": "Sân Hai Bà Trưng",
        "category": "oak",
        "position": {
            "lat": 21.01612154804117,
            "lng": 105.8494144550347
        }
    }
]