[
    {
        "value": "Hà Nội",
        "label": "Hà Nội",
        "geolocation": {
            "latitude": 21.028511,
            "longitude": 105.804817
        },
        "districts": [
            {
                "value": "Ba Đình",
                "label": "Ba Đình",
                "geolocation": {
                    "latitude": 21.0333,
                    "longitude": 105.8142
                }
            },
            {
                "value": "Hoàn Kiếm",
                "label": "Hoàn Kiếm",
                "geolocation": {
                    "latitude": 21.0285,
                    "longitude": 105.8542
                }
            },
            {
                "value": "Tây Hồ",
                "label": "Tây Hồ",
                "geolocation": {
                    "latitude": 21.0718,
                    "longitude": 105.8036
                }
            },
            {
                "value": "Long Biên",
                "label": "Long Biên",
                "geolocation": {
                    "latitude": 21.0423,
                    "longitude": 105.9119
                }
            },
            {
                "value": "Cầu Giấy",
                "label": "Cầu Giấy",
                "geolocation": {
                    "latitude": 21.0369,
                    "longitude": 105.7906
                }
            },
            {
                "value": "Đống Đa",
                "label": "Đống Đa",
                "geolocation": {
                    "latitude": 21.0180,
                    "longitude": 105.8297
                }
            },
            {
                "value": "Hai Bà Trưng",
                "label": "Hai Bà Trưng",
                "geolocation": {
                    "latitude": 21.0064,
                    "longitude": 105.8642
                }
            },
            {
                "value": "Hoàng Mai",
                "label": "Hoàng Mai",
                "geolocation": {
                    "latitude": 20.9828,
                    "longitude": 105.8694
                }
            },
            {
                "value": "Thanh Xuân",
                "label": "Thanh Xuân",
                "geolocation": {
                    "latitude": 20.9981,
                    "longitude": 105.8105
                }
            },
            {
                "value": "Sóc Sơn",
                "label": "Sóc Sơn",
                "geolocation": {
                    "latitude": 21.2630,
                    "longitude": 105.8480
                }
            },
            {
                "value": "Đông Anh",
                "label": "Đông Anh",
                "geolocation": {
                    "latitude": 21.1384,
                    "longitude": 105.8492
                }
            },
            {
                "value": "Gia Lâm",
                "label": "Gia Lâm",
                "geolocation": {
                    "latitude": 21.0208,
                    "longitude": 105.9316
                }
            },
            {
                "value": "Nam Từ Liêm",
                "label": "Nam Từ Liêm",
                "geolocation": {
                    "latitude": 21.0175,
                    "longitude": 105.7665
                }
            },
            {
                "value": "Thanh Trì",
                "label": "Thanh Trì",
                "geolocation": {
                    "latitude": 20.9466,
                    "longitude": 105.8412
                }
            },
            {
                "value": "Bắc Từ Liêm",
                "label": "Bắc Từ Liêm",
                "geolocation": {
                    "latitude": 21.0594,
                    "longitude": 105.7650
                }
            },
            {
                "value": "Mê Linh",
                "label": "Mê Linh",
                "geolocation": {
                    "latitude": 21.1628,
                    "longitude": 105.7144
                }
            },
            {
                "value": "Hà Đông",
                "label": "Hà Đông",
                "geolocation": {
                    "latitude": 20.9739,
                    "longitude": 105.7728
                }
            },
            {
                "value": "Sơn Tây",
                "label": "Sơn Tây",
                "geolocation": {
                    "latitude": 21.1400,
                    "longitude": 105.5047
                }
            },
            {
                "value": "Ba Vì",
                "label": "Ba Vì",
                "geolocation": {
                    "latitude": 21.2183,
                    "longitude": 105.4089
                }
            },
            {
                "value": "Phúc Thọ",
                "label": "Phúc Thọ",
                "geolocation": {
                    "latitude": 21.0988,
                    "longitude": 105.5787
                }
            },
            {
                "value": "Đan Phượng",
                "label": "Đan Phượng",
                "geolocation": {
                    "latitude": 21.0744,
                    "longitude": 105.6798
                }
            },
            {
                "value": "Hoài Đức",
                "label": "Hoài Đức",
                "geolocation": {
                    "latitude": 21.0297,
                    "longitude": 105.7075
                }
            },
            {
                "value": "Quốc Oai",
                "label": "Quốc Oai",
                "geolocation": {
                    "latitude": 20.9722,
                    "longitude": 105.6496
                }
            },
            {
                "value": "Thạch Thất",
                "label": "Thạch Thất",
                "geolocation": {
                    "latitude": 21.0483,
                    "longitude": 105.5920
                }
            },
            {
                "value": "Chương Mỹ",
                "label": "Chương Mỹ",
                "geolocation": {
                    "latitude": 20.9054,
                    "longitude": 105.6314
                }
            },
            {
                "value": "Thanh Oai",
                "label": "Thanh Oai",
                "geolocation": {
                    "latitude": 20.8466,
                    "longitude": 105.7427
                }
            },
            {
                "value": "Thường Tín",
                "label": "Thường Tín",
                "geolocation": {
                    "latitude": 20.8539,
                    "longitude": 105.8521
                }
            },
            {
                "value": "Phú Xuyên",
                "label": "Phú Xuyên",
                "geolocation": {
                    "latitude": 20.7741,
                    "longitude": 105.9265
                }
            },
            {
                "value": "Ứng Hòa",
                "label": "Ứng Hòa",
                "geolocation": {
                    "latitude": 20.7356,
                    "longitude": 105.7792
                }
            },
            {
                "value": "Mỹ Đức",
                "label": "Mỹ Đức",
                "geolocation": {
                    "latitude": 20.6958,
                    "longitude": 105.7393
                }
            }
        ]
    },
    {
        "value": "Hồ Chí Minh",
        "label": "Hồ Chí Minh",
        "geolocation": {
            "latitude": 10.823099,
            "longitude": 106.629664
        },
        "districts": [
            {
                "value": "Quận 1",
                "label": "Quận 1",
                "geolocation": {
                    "latitude": 10.7759,
                    "longitude": 106.7009
                }
            },
            {
                "value": "Thành phố Thủ Đức",
                "label": "Quận 2",
                "geolocation": {
                    "latitude": 10.7871,
                    "longitude": 106.7497
                }
            },
            {
                "value": "Quận 3",
                "label": "Quận 3",
                "geolocation": {
                    "latitude": 10.7822,
                    "longitude": 106.6842
                }
            },
            {
                "value": "Quận 4",
                "label": "Quận 4",
                "geolocation": {
                    "latitude": 10.7570,
                    "longitude": 106.7019
                }
            },
            {
                "value": "Quận 5",
                "label": "Quận 5",
                "geolocation": {
                    "latitude": 10.7543,
                    "longitude": 106.6633
                }
            },
            {
                "value": "Quận 6",
                "label": "Quận 6",
                "geolocation": {
                    "latitude": 10.7523,
                    "longitude": 106.6429
                }
            },
            {
                "value": "Quận 7",
                "label": "Quận 7",
                "geolocation": {
                    "latitude": 10.7301,
                    "longitude": 106.7218
                }
            },
            {
                "value": "Quận 8",
                "label": "Quận 8",
                "geolocation": {
                    "latitude": 10.7248,
                    "longitude": 106.6351
                }
            },
            {
                "value": "Quận 9",
                "label": "Quận 9",
                "geolocation": {
                    "latitude": 10.8445,
                    "longitude": 106.8346
                }
            },
            {
                "value": "Quận 10",
                "label": "Quận 10",
                "geolocation": {
                    "latitude": 10.7769,
                    "longitude": 106.6670
                }
            },
            {
                "value": "Quận 11",
                "label": "Quận 11",
                "geolocation": {
                    "latitude": 10.7628,
                    "longitude": 106.6469
                }
            },
            {
                "value": "Quận 12",
                "label": "Quận 12",
                "geolocation": {
                    "latitude": 10.8548,
                    "longitude": 106.6286
                }
            },
            {
                "value": "Bình Tân",
                "label": "Bình Tân",
                "geolocation": {
                    "latitude": 10.7650,
                    "longitude": 106.6205
                }
            },
            {
                "value": "Bình Thạnh",
                "label": "Bình Thạnh",
                "geolocation": {
                    "latitude": 10.8061,
                    "longitude": 106.7130
                }
            },
            {
                "value": "Gò Vấp",
                "label": "Gò Vấp",
                "geolocation": {
                    "latitude": 10.8380,
                    "longitude": 106.6765
                }
            },
            {
                "value": "Phú Nhuận",
                "label": "Phú Nhuận",
                "geolocation": {
                    "latitude": 10.7995,
                    "longitude": 106.6803
                }
            },
            {
                "value": "Tân Bình",
                "label": "Tân Bình",
                "geolocation": {
                    "latitude": 10.8015,
                    "longitude": 106.6520
                }
            },
            {
                "value": "Tân Phú",
                "label": "Tân Phú",
                "geolocation": {
                    "latitude": 10.7939,
                    "longitude": 106.6320
                }
            },
            {
                "value": "Thủ Đức",
                "label": "Thủ Đức",
                "geolocation": {
                    "latitude": 10.8493,
                    "longitude": 106.7536
                }
            },
            {
                "value": "Nhà Bè",
                "label": "Nhà Bè",
                "geolocation": {
                    "latitude": 10.6658,
                    "longitude": 106.7011
                }
            },
            {
                "value": "Cần Giờ",
                "label": "Cần Giờ",
                "geolocation": {
                    "latitude": 10.4114,
                    "longitude": 106.9547
                }
            },
            {
                "value": "Hóc Môn",
                "label": "Hóc Môn",
                "geolocation": {
                    "latitude": 10.8919,
                    "longitude": 106.5830
                }
            },
            {
                "value": "Củ Chi",
                "label": "Củ Chi",
                "geolocation": {
                    "latitude": 11.0077,
                    "longitude": 106.4989
                }
            }
        ]
    },
    {
        "value": "An Giang",
        "label": "An Giang",
        "geolocation": {
            "latitude": 10.521583,
            "longitude": 105.125896
        }
    },
    {
        "value": "Bà Rịa - Vũng Tàu",
        "label": "Bà Rịa - Vũng Tàu",
        "geolocation": {
            "latitude": 10.541739,
            "longitude": 107.242997
        }
    },
    {
        "value": "Bắc Giang",
        "label": "Bắc Giang",
        "geolocation": {
            "latitude": 21.273007,
            "longitude": 106.194213
        }
    },
    {
        "value": "Bắc Kạn",
        "label": "Bắc Kạn",
        "geolocation": {
            "latitude": 22.147021,
            "longitude": 105.834351
        }
    },
    {
        "value": "Bạc Liêu",
        "label": "Bạc Liêu",
        "geolocation": {
            "latitude": 9.294113,
            "longitude": 105.724271
        }
    },
    {
        "value": "Bắc Ninh",
        "label": "Bắc Ninh",
        "geolocation": {
            "latitude": 21.186088,
            "longitude": 106.076379
        }
    },
    {
        "value": "Bến Tre",
        "label": "Bến Tre",
        "geolocation": {
            "latitude": 10.241471,
            "longitude": 106.375557
        }
    },
    {
        "value": "Bình Định",
        "label": "Bình Định",
        "geolocation": {
            "latitude": 14.166533,
            "longitude": 108.902683
        }
    },
    {
        "value": "Bình Dương",
        "label": "Bình Dương",
        "geolocation": {
            "latitude": 11.325402,
            "longitude": 106.683083
        }
    },
    {
        "value": "Bình Phước",
        "label": "Bình Phước",
        "geolocation": {
            "latitude": 11.678473,
            "longitude": 106.890715
        }
    },
    {
        "value": "Bình Thuận",
        "label": "Bình Thuận",
        "geolocation": {
            "latitude": 11.090644,
            "longitude": 108.072079
        }
    },
    {
        "value": "Cà Mau",
        "label": "Cà Mau",
        "geolocation": {
            "latitude": 9.152895,
            "longitude": 105.196078
        }
    },
    {
        "value": "Cần Thơ",
        "label": "Cần Thơ",
        "geolocation": {
            "latitude": 10.045162,
            "longitude": 105.746855
        }
    },
    {
        "value": "Cao Bằng",
        "label": "Cao Bằng",
        "geolocation": {
            "latitude": 22.666693,
            "longitude": 106.266274
        }
    },
    {
        "value": "Đà Nẵng",
        "label": "Đà Nẵng",
        "geolocation": {
            "latitude": 16.054407,
            "longitude": 108.202167
        }
    },
    {
        "value": "Đắk Lắk",
        "label": "Đắk Lắk",
        "geolocation": {
            "latitude": 12.710012,
            "longitude": 108.237751
        }
    },
    {
        "value": "Đắk Nông",
        "label": "Đắk Nông",
        "geolocation": {
            "latitude": 12.015093,
            "longitude": 107.690493
        }
    },
    {
        "value": "Điện Biên",
        "label": "Điện Biên",
        "geolocation": {
            "latitude": 21.386025,
            "longitude": 103.023006
        }
    },
    {
        "value": "Đồng Nai",
        "label": "Đồng Nai",
        "geolocation": {
            "latitude": 10.945271,
            "longitude": 106.856396
        }
    },
    {
        "value": "Đồng Tháp",
        "label": "Đồng Tháp",
        "geolocation": {
            "latitude": 10.603722,
            "longitude": 105.688178
        }
    },
    {
        "value": "Gia Lai",
        "label": "Gia Lai",
        "geolocation": {
            "latitude": 13.807894,
            "longitude": 108.109375
        }
    },
    {
        "value": "Hà Giang",
        "label": "Hà Giang",
        "geolocation": {
            "latitude": 22.766205,
            "longitude": 104.938885
        }
    },
    {
        "value": "Hà Nam",
        "label": "Hà Nam",
        "geolocation": {
            "latitude": 20.583519,
            "longitude": 105.921823
        }
    },
    {
        "value": "Hà Tĩnh",
        "label": "Hà Tĩnh",
        "geolocation": {
            "latitude": 18.342812,
            "longitude": 105.905693
        }
    },
    {
        "value": "Hải Dương",
        "label": "Hải Dương",
        "geolocation": {
            "latitude": 20.937341,
            "longitude": 106.314614
        }
    },
    {
        "value": "Hải Phòng",
        "label": "Hải Phòng",
        "geolocation": {
            "latitude": 20.844912,
            "longitude": 106.688084
        }
    },
    {
        "value": "Hậu Giang",
        "label": "Hậu Giang",
        "geolocation": {
            "latitude": 9.784290,
            "longitude": 105.470008
        }
    },
    {
        "value": "Hòa Bình",
        "label": "Hòa Bình",
        "geolocation": {
            "latitude": 20.686126,
            "longitude": 105.313119
        }
    },
    {
        "value": "Hưng Yên",
        "label": "Hưng Yên",
        "geolocation": {
            "latitude": 20.646083,
            "longitude": 106.051079
        }
    },
    {
        "value": "Khánh Hòa",
        "label": "Khánh Hòa",
        "geolocation": {
            "latitude": 12.258714,
            "longitude": 109.052607
        }
    },
    {
        "value": "Kiên Giang",
        "label": "Kiên Giang",
        "geolocation": {
            "latitude": 10.012211,
            "longitude": 105.080911
        }
    },
    {
        "value": "Kon Tum",
        "label": "Kon Tum",
        "geolocation": {
            "latitude": 14.661167,
            "longitude": 107.837456
        }
    },
    {
        "value": "Lai Châu",
        "label": "Lai Châu",
        "geolocation": {
            "latitude": 22.396428,
            "longitude": 103.458749
        }
    },
    {
        "value": "Lâm Đồng",
        "label": "Lâm Đồng",
        "geolocation": {
            "latitude": 11.575279,
            "longitude": 108.142866
        }
    },
    {
        "value": "Lạng Sơn",
        "label": "Lạng Sơn",
        "geolocation": {
            "latitude": 21.845621,
            "longitude": 106.726918
        }
    },
    {
        "value": "Lào Cai",
        "label": "Lào Cai",
        "geolocation": {
            "latitude": 22.485979,
            "longitude": 103.970654
        }
    },
    {
        "value": "Long An",
        "label": "Long An",
        "geolocation": {
            "latitude": 10.543144,
            "longitude": 106.405129
        }
    },
    {
        "value": "Nam Định",
        "label": "Nam Định",
        "geolocation": {
            "latitude": 20.437340,
            "longitude": 106.162105
        }
    },
    {
        "value": "Nghệ An",
        "label": "Nghệ An",
        "geolocation": {
            "latitude": 19.234248,
            "longitude": 104.920036
        }
    },
    {
        "value": "Ninh Bình",
        "label": "Ninh Bình",
        "geolocation": {
            "latitude": 20.250614,
            "longitude": 105.974453
        }
    },
    {
        "value": "Ninh Thuận",
        "label": "Ninh Thuận",
        "geolocation": {
            "latitude": 11.673792,
            "longitude": 108.987263
        }
    },
    {
        "value": "Phú Thọ",
        "label": "Phú Thọ",
        "geolocation": {
            "latitude": 21.319062,
            "longitude": 105.199013
        }
    },
    {
        "value": "Phú Yên",
        "label": "Phú Yên",
        "geolocation": {
            "latitude": 13.088186,
            "longitude": 109.092876
        }
    },
    {
        "value": "Quảng Bình",
        "label": "Quảng Bình",
        "geolocation": {
            "latitude": 17.610982,
            "longitude": 106.348747
        }
    },
    {
        "value": "Quảng Nam",
        "label": "Quảng Nam",
        "geolocation": {
            "latitude": 15.539353,
            "longitude": 108.019102
        }
    },
    {
        "value": "Quảng Ngãi",
        "label": "Quảng Ngãi",
        "geolocation": {
            "latitude": 15.120473,
            "longitude": 108.792168
        }
    },
    {
        "value": "Quảng Ninh",
        "label": "Quảng Ninh",
        "geolocation": {
            "latitude": 21.006382,
            "longitude": 107.292514
        }
    },
    {
        "value": "Quảng Trị",
        "label": "Quảng Trị",
        "geolocation": {
            "latitude": 16.794934,
            "longitude": 107.085717
        }
    },
    {
        "value": "Sóc Trăng",
        "label": "Sóc Trăng",
        "geolocation": {
            "latitude": 9.6038,
            "longitude": 105.9805
        }
    },
    {
        "value": "Sơn La",
        "label": "Sơn La",
        "geolocation": {
            "latitude": 21.3286,
            "longitude": 103.9144
        }
    },
    {
        "value": "Tây Ninh",
        "label": "Tây Ninh",
        "geolocation": {
            "latitude": 11.3554,
            "longitude": 106.1304
        }
    },
    {
        "value": "Thái Bình",
        "label": "Thái Bình",
        "geolocation": {
            "latitude": 20.4463,
            "longitude": 106.3366
        }
    },
    {
        "value": "Thái Nguyên",
        "label": "Thái Nguyên",
        "geolocation": {
            "latitude": 21.5672,
            "longitude": 105.8392
        }
    },
    {
        "value": "Thanh Hóa",
        "label": "Thanh Hóa",
        "geolocation": {
            "latitude": 19.8067,
            "longitude": 105.7852
        }
    },
    {
        "value": "Thừa Thiên Huế",
        "label": "Thừa Thiên Huế",
        "geolocation": {
            "latitude": 16.4674,
            "longitude": 107.5905
        }
    },
    {
        "value": "Tiền Giang",
        "label": "Tiền Giang",
        "geolocation": {
            "latitude": 10.4493,
            "longitude": 106.3421
        }
    },
    {
        "value": "Trà Vinh",
        "label": "Trà Vinh",
        "geolocation": {
            "latitude": 9.9475,
            "longitude": 106.3441
        }
    },
    {
        "value": "Tuyên Quang",
        "label": "Tuyên Quang",
        "geolocation": {
            "latitude": 21.8238,
            "longitude": 105.2141
        }
    },
    {
        "value": "Vĩnh Long",
        "label": "Vĩnh Long",
        "geolocation": {
            "latitude": 10.2537,
            "longitude": 105.9722
        }
    },
    {
        "value": "Vĩnh Phúc",
        "label": "Vĩnh Phúc",
        "geolocation": {
            "latitude": 21.3085,
            "longitude": 105.6031
        }
    },
    {
        "value": "Yên Bái",
        "label": "Yên Bái",
        "geolocation": {
            "latitude": 21.7229,
            "longitude": 104.9113
        }
    }
]